{"meta":{"code":200,"requestId":"60007e84f5b91f3347df1831"},"response":{"suggestedFilters":{"header":"Tap to show:","filters":[{"name":"Open now","key":"openNow"}]},"headerLocation":"Financial District","headerFullLocation":"Financial District, Toronto","headerLocationGranularity":"neighborhood","totalResults":190,"suggestedBounds":{"ne":{"lat":43.662623644425096,"lng":-79.36099045874975},"sw":{"lat":43.63562361742507,"lng":-79.39823527247297}},"groups":[{"type":"Recommended Places","name":"recommended","items":[{"reasons":{"count":0,"items":[{"summary":"This spot is popular","type":"general","reasonName":"globalInteractionReason"}]},"venue":{"id":"514627d1e4b0dba1b85e9ba8","name":"Dineen Coffee","location":{"address":"140 Yonge St","crossStreet":"at Temperance St","lat":43.650497,"lng":-79.378765,"labeledLatLngs":[{"label":"display","lat":43.650497,"lng":-79.378765}],"distance":167,"postalCode":"M5C 1X6","cc":"CA","neighborhood":"Financial District","city":"Toronto","state":"ON","country":"Canada","formattedAddress":["140 Yonge St (at Temperance St)","Toronto ON M5C 1X6","Canada"]},"categories":[{"id":"4bf58dd8d48988d16d941735","name":"Café","pluralName":"Cafés","shortName":"Café","icon":{"prefix":"https:\/\/ss3.4sqi.net\/img\/categories_v2\/food\/cafe_","suffix":".png"},"primary":true}],"photos":{"count":0,"groups":[]}},"referralId":"e-0-514627d1e4b0dba1b85e9ba8-0"},{"reasons":{"count":0,"items":[{"summary":"This spot is popular","type":"general","reasonName":"globalInteractionReason"}]},"venue":{"id":"52138db911d22803b334c641","name":"Mos Mos Coffee","location":{"address":"Commerce Court East","lat":43.64815919753501,"lng":-79.37874450467258,"labeledLatLngs":[{"label":"display","lat":43.64815919753501,"lng":-79.37874450467258}],"distance":128,"cc":"CA","city":"Toronto","state":"ON","country":"Canada","formattedAddress":["Commerce Court East","Toronto ON","Canada"]},"categories":[{"id":"4bf58dd8d48988d16d941735","name":"Café","pluralName":"Cafés","shortName":"Café","icon":{"prefix":"https:\/\/ss3.4sqi.net\/img\/categories_v2\/food\/cafe_","suffix":".png"},"primary":true}],"photos":{"count":0,"groups":[]}},"referralId":"e-0-52138db911d22803b334c641-1"},{"reasons":{"count":0,"items":[{"summary":"This spot is popular","type":"general","reasonName":"globalInteractionReason"}]},"venue":{"id":"506db1a9e4b0a3f3b31412f0","name":"Richmond Station","location":{"address":"1 Richmond Street West","crossStreet":"Yonge Street","lat":43.65156872562108,"lng":-79.37926594000328,"labeledLatLngs":[{"label":"display","lat":43.65156872562108,"lng":-79.37926594000328}],"distance":273,"cc":"CA","city":"Toronto","state":"ON","country":"Canada","formattedAddress":["1 Richmond Street West (Yonge Street)","Toronto ON","Canada"]},"categories":[{"id":"4bf58dd8d48988d14e941735","name":"American Restaurant","pluralName":"American Restaurants","shortName":"American","icon":{"prefix":"https:\/\/ss3.4sqi.net\/img\/categories_v2\/food\/default_","suffix":".png"},"primary":true}],"photos":{"count":0,"groups":[]}},"referralId":"e-0-506db1a9e4b0a3f3b31412f0-2"},{"reasons":{"count":0,"items":[{"summary":"This spot is popular","type":"general","reasonName":"globalInteractionReason"}]},"venue":{"id":"501ae947e4b0d11883b910a7","name":"Equinox Bay Street","location":{"address":"199 Bay St","crossStreet":"at Commerce Court West, PATH Level","lat":43.64809974034856,"lng":-79.37998869411526,"labeledLatLngs":[{"label":"display","lat":43.64809974034856,"lng":-79.37998869411526}],"distance":117,"postalCode":"M5L 1L5","cc":"CA","city":"Toronto","state":"ON","country":"Canada","formattedAddress":["199 Bay St (at Commerce Court West, PATH Level)","Toronto ON M5L 1L5","Canada"]},"categories":[{"id":"4bf58dd8d48988d176941735","name":"Gym","pluralName":"Gyms","shortName":"Gym","icon":{"prefix":"https:\/\/ss3.4sqi.net\/img\/categories_v2\/building\/gym_","suffix":".png"},"primary":true}],"photos":{"count":0,"groups":[]}},"referralId":"e-0-501ae947e4b0d11883b910a7-3"},{"reasons":{"count":0,"items":[{"summary":"This spot is popular","type":"general","reasonName":"globalInteractionReason"}]},"venue":{"id":"4ad4c05ef964a520d8f620e3","name":"Hockey Hall Of Fame (Hockey Hall of Fame)","location":{"address":"30 Yonge St.","crossStreet":"at Brookfield Pl.","lat":43.646974451431056,"lng":-79.37732323942681,"labeledLatLngs":[{"label":"display","lat":43.646974451431056,"lng":-79.37732323942681}],"distance":302,"postalCode":"M5E 1X8","cc":"CA","city":"Toronto","state":"ON","country":"Canada","formattedAddress":["30 Yonge St. (at Brookfield Pl.)","Toronto ON M5E 1X8","Canada"]},"categories":[{"id":"4bf58dd8d48988d181941735","name":"Museum","pluralName":"Museums","shortName":"Museum","icon":{"prefix":"https:\/\/ss3.4sqi.net\/img\/categories_v2\/arts_entertainment\/museum_","suffix":".png"},"primary":true}],"photos":{"count":0,"groups":[]}},"referralId":"e-0-4ad4c05ef964a520d8f620e3-4"},{"reasons":{"count":0,"items":[{"summary":"This spot is popular","type":"general","reasonName":"globalInteractionReason"}]},"venue":{"id":"4fcb97f7e4b00a0e8520b055","name":"Hogtown Smoke","location":{"address":"1959 Queen St E","lat":43.64928693557788,"lng":-79.37468932637938,"labeledLatLngs":[{"label":"display","lat":43.64928693557788,"lng":-79.37468932637938}],"distance":396,"postalCode":"M4L 1H7","cc":"CA","city":"Toronto","state":"ON","country":"Canada","formattedAddress":["1959 Queen St E","Toronto ON M4L 1H7","Canada"]},"categories":[{"id":"4bf58dd8d48988d1cb941735","name":"Food Truck","pluralName":"Food Trucks","shortName":"Food Truck","icon":{"prefix":"https:\/\/ss3.4sqi.net\/img\/categories_v2\/food\/streetfood_","suffix":".png"},"primary":true}],"photos":{"count":0,"groups":[]},"venuePage":{"id":"41352822"}},"referralId":"e-0-4fcb97f7e4b00a0e8520b055-5"},{"reasons":{"count":0,"items":[{"summary":"This spot is popular","type":"general","reasonName":"globalInteractionReason"}]},"venue":{"id":"4adf7d0bf964a520127b21e3","name":"The Omni King Edward Hotel","location":{"address":"37 King Street East","crossStreet":"bwtn Victoria St. and Toronto St.","lat":43.64919051601911,"lng":-79.37600612640387,"labeledLatLngs":[{"label":"display","lat":43.64919051601911,"lng":-79.37600612640387}],"distance":290,"postalCode":"M5C 1E9","cc":"CA","city":"Toronto","state":"ON","country":"Canada","formattedAddress":["37 King Street East (bwtn Victoria St. and Toronto St.)","Toronto ON M5C 1E9","Canada"]},"categories":[{"id":"4bf58dd8d48988d1fa931735","name":"Hotel","pluralName":"Hotels","shortName":"Hotel","icon":{"prefix":"https:\/\/ss3.4sqi.net\/img\/categories_v2\/travel\/hotel_","suffix":".png"},"primary":true}],"photos":{"count":0,"groups":[]},"venuePage":{"id":"51136538"}},"referralId":"e-0-4adf7d0bf964a520127b21e3-6"},{"reasons":{"count":0,"items":[{"summary":"This spot is popular","type":"general","reasonName":"globalInteractionReason"}]},"venue":{"id":"4ad4c062f964a520b5f720e3","name":"Elgin And Winter Garden Theatres","location":{"address":"189 Yonge St","crossStreet":"btwn Queen St E & Shuter St","lat":43.653393796019586,"lng":-79.3785073962175,"labeledLatLngs":[{"label":"display","lat":43.653393796019586,"lng":-79.3785073962175}],"distance":483,"postalCode":"M5B 2H1","cc":"CA","city":"Toronto","state":"ON","country":"Canada","formattedAddress":["189 Yonge St (btwn Queen St E & Shuter St)","Toronto ON M5B 2H1","Canada"]},"categories":[{"id":"4bf58dd8d48988d137941735","name":"Theater","pluralName":"Theaters","shortName":"Theater","icon":{"prefix":"https:\/\/ss3.4sqi.net\/img\/categories_v2\/arts_entertainment\/performingarts_theater_","suffix":".png"},"primary":true}],"photos":{"count":0,"groups":[]}},"referralId":"e-0-4ad4c062f964a520b5f720e3-7"},{"reasons":{"count":0,"items":[{"summary":"This spot is popular","type":"general","reasonName":"globalInteractionReason"}]},"venue":{"id":"4bb79860cf2fc9b616779e02","name":"Berczy Park","location":{"address":"35 Wellington St. East","lat":43.64804835388851,"lng":-79.3751722909452,"labeledLatLngs":[{"label":"display","lat":43.64804835388851,"lng":-79.3751722909452}],"distance":377,"cc":"CA","city":"Toronto","state":"ON","country":"Canada","formattedAddress":["35 Wellington St. East","Toronto ON","Canada"]},"categories":[{"id":"4bf58dd8d48988d163941735","name":"Park","pluralName":"Parks","shortName":"Park","icon":{"prefix":"https:\/\/ss3.4sqi.net\/img\/categories_v2\/parks_outdoors\/park_","suffix":".png"},"primary":true}],"photos":{"count":0,"groups":[]}},"referralId":"e-0-4bb79860cf2fc9b616779e02-8"},{"reasons":{"count":0,"items":[{"summary":"This spot is popular","type":"general","reasonName":"globalInteractionReason"}]},"venue":{"id":"4ad4c05ef964a520a6f620e3","name":"Nathan Phillips Square","location":{"address":"100 Queen St W","crossStreet":"at Bay St","lat":43.65227047322295,"lng":-79.38351631164551,"labeledLatLngs":[{"label":"display","lat":43.65227047322295,"lng":-79.38351631164551}],"distance":470,"postalCode":"M5H 2N1","cc":"CA","city":"Toronto","state":"ON","country":"Canada","formattedAddress":["100 Queen St W (at Bay St)","Toronto ON M5H 2N1","Canada"]},"categories":[{"id":"4bf58dd8d48988d164941735","name":"Plaza","pluralName":"Plazas","shortName":"Plaza","icon":{"prefix":"https:\/\/ss3.4sqi.net\/img\/categories_v2\/parks_outdoors\/plaza_","suffix":".png"},"primary":true}],"photos":{"count":0,"groups":[]}},"referralId":"e-0-4ad4c05ef964a520a6f620e3-9"},{"reasons":{"count":0,"items":[{"summary":"This spot is popular","type":"general","reasonName":"globalInteractionReason"}]},"venue":{"id":"4b56a44ff964a5206e1728e3","name":"The Keg Steakhouse + Bar - Esplanade","location":{"address":"26 The Esplanade","lat":43.64671207408793,"lng":-79.37476761639118,"labeledLatLngs":[{"label":"display","lat":43.64671207408793,"lng":-79.37476761639118}],"distance":473,"postalCode":"M5E 1A7","cc":"CA","city":"Toronto","state":"ON","country":"Canada","formattedAddress":["26 The Esplanade","Toronto ON M5E 1A7","Canada"]},"categories":[{"id":"4bf58dd8d48988d1c4941735","name":"Restaurant","pluralName":"Restaurants","shortName":"Restaurant","icon":{"prefix":"https:\/\/ss3.4sqi.net\/img\/categories_v2\/food\/default_","suffix":".png"},"primary":true}],"photos":{"count":0,"groups":[]},"venuePage":{"id":"1359972029"}},"referralId":"e-0-4b56a44ff964a5206e1728e3-10"},{"reasons":{"count":0,"items":[{"summary":"This spot is popular","type":"general","reasonName":"globalInteractionReason"}]},"venue":{"id":"583f54320923922e8141d360","name":"Crepe TO","location":{"address":"52 Church Street","lat":43.650063279511016,"lng":-79.37458664523871,"labeledLatLngs":[{"label":"display","lat":43.650063279511016,"lng":-79.37458664523871}],"distance":418,"postalCode":"M5C 3C8","cc":"CA","city":"Toronto","state":"ON","country":"Canada","formattedAddress":["52 Church Street","Toronto ON M5C 3C8","Canada"]},"categories":[{"id":"52e81612bcbc57f1066b79f2","name":"Creperie","pluralName":"Creperies","shortName":"Creperie","icon":{"prefix":"https:\/\/ss3.4sqi.net\/img\/categories_v2\/food\/creperie_","suffix":".png"},"primary":true}],"photos":{"count":0,"groups":[]}},"referralId":"e-0-583f54320923922e8141d360-11"},{"reasons":{"count":0,"items":[{"summary":"This spot is popular","type":"general","reasonName":"globalInteractionReason"}]},"venue":{"id":"5b5bca904aa3f8002c97f85d","name":"Fresh On Front","location":{"address":"47 Front Street E","crossStreet":"Church Street","lat":43.64781466405137,"lng":-79.3744527618627,"labeledLatLngs":[{"label":"display","lat":43.64781466405137,"lng":-79.3744527618627}],"distance":440,"postalCode":"M5E 1B3","cc":"CA","city":"Toronto","state":"ON","country":"Canada","formattedAddress":["47 Front Street E (Church Street)","Toronto ON M5E 1B3","Canada"]},"categories":[{"id":"4bf58dd8d48988d1d3941735","name":"Vegetarian \/ Vegan Restaurant","pluralName":"Vegetarian \/ Vegan Restaurants","shortName":"Vegetarian \/ Vegan","icon":{"prefix":"https:\/\/ss3.4sqi.net\/img\/categories_v2\/food\/vegetarian_","suffix":".png"},"primary":true}],"photos":{"count":0,"groups":[]}},"referralId":"e-0-5b5bca904aa3f8002c97f85d-12"},{"reasons":{"count":0,"items":[{"summary":"This spot is popular","type":"general","reasonName":"globalInteractionReason"}]},"venue":{"id":"574ad72238fa943556d93b8e","name":"Gyu-Kaku Japanese BBQ","location":{"address":"81 Church St","crossStreet":"at Adelaide St E","lat":43.651422275497914,"lng":-79.37504693687086,"labeledLatLngs":[{"label":"display","lat":43.651422275497914,"lng":-79.37504693687086}],"distance":448,"postalCode":"M5C 2G2","cc":"CA","city":"Toronto","state":"ON","country":"Canada","formattedAddress":["81 Church St (at Adelaide St E)","Toronto ON M5C 2G2","Canada"]},"categories":[{"id":"4bf58dd8d48988d111941735","name":"Japanese Restaurant","pluralName":"Japanese Restaurants","shortName":"Japanese","icon":{"prefix":"https:\/\/ss3.4sqi.net\/img\/categories_v2\/food\/japanese_","suffix":".png"},"primary":true}],"photos":{"count":0,"groups":[]}},"referralId":"e-0-574ad72238fa943556d93b8e-13"},{"reasons":{"count":0,"items":[{"summary":"This spot is popular","type":"general","reasonName":"globalInteractionReason"}]},"venue":{"id":"50b7c53616485cd9efad60d5","name":"Sukhothai","location":{"address":"52 Wellington St. E.","crossStreet":"at Church St","lat":43.64848710249909,"lng":-79.37454735245633,"labeledLatLngs":[{"label":"display","lat":43.64848710249909,"lng":-79.37454735245633}],"distance":414,"postalCode":"M5E 1C9","cc":"CA","neighborhood":"St. Lawrence","city":"Toronto","state":"ON","country":"Canada","formattedAddress":["52 Wellington St. E. (at Church St)","Toronto ON M5E 1C9","Canada"]},"categories":[{"id":"4bf58dd8d48988d149941735","name":"Thai Restaurant","pluralName":"Thai Restaurants","shortName":"Thai","icon":{"prefix":"https:\/\/ss3.4sqi.net\/img\/categories_v2\/food\/thai_","suffix":".png"},"primary":true}],"photos":{"count":0,"groups":[]}},"referralId":"e-0-50b7c53616485cd9efad60d5-14"},{"reasons":{"count":0,"items":[{"summary":"This spot is popular","type":"general","reasonName":"globalInteractionReason"}]},"venue":{"id":"4ad4c062f964a520e5f720e3","name":"Four Seasons Centre for the Performing Arts","location":{"address":"145 Queen St. W","crossStreet":"at University Ave.","lat":43.650592,"lng":-79.385806,"labeledLatLngs":[{"label":"display","lat":43.650592,"lng":-79.385806}],"distance":524,"postalCode":"M5H 4G1","cc":"CA","city":"Toronto","state":"ON","country":"Canada","formattedAddress":["145 Queen St. W (at University Ave.)","Toronto ON M5H 4G1","Canada"]},"categories":[{"id":"5032792091d4c4b30a586d5c","name":"Concert Hall","pluralName":"Concert Halls","shortName":"Concert Hall","icon":{"prefix":"https:\/\/ss3.4sqi.net\/img\/categories_v2\/arts_entertainment\/musicvenue_","suffix":".png"},"primary":true}],"photos":{"count":0,"groups":[]}},"referralId":"e-0-4ad4c062f964a520e5f720e3-15"},{"reasons":{"count":0,"items":[{"summary":"This spot is popular","type":"general","reasonName":"globalInteractionReason"}]},"venue":{"id":"59ab10e242d8c27897e996cb","name":"Dog Fountain","location":{"lat":43.64799795147863,"lng":-79.37536096948996,"labeledLatLngs":[{"label":"display","lat":43.64799795147863,"lng":-79.37536096948996}],"distance":364,"postalCode":"M5E","cc":"CA","city":"Toronto","state":"ON","country":"Canada","formattedAddress":["Toronto ON M5E","Canada"]},"categories":[{"id":"56aa371be4b08b9a8d573547","name":"Fountain","pluralName":"Fountains","shortName":"Fountain","icon":{"prefix":"https:\/\/ss3.4sqi.net\/img\/categories_v2\/parks_outdoors\/plaza_","suffix":".png"},"primary":true}],"photos":{"count":0,"groups":[]}},"referralId":"e-0-59ab10e242d8c27897e996cb-16"},{"reasons":{"count":0,"items":[{"summary":"This spot is popular","type":"general","reasonName":"globalInteractionReason"}]},"venue":{"id":"50322b6ae4b09116a296568c","name":"Soho House Toronto","location":{"address":"192 Adelaide St W","crossStreet":"at Simcoe St.","lat":43.64873430659662,"lng":-79.38654117564838,"labeledLatLngs":[{"label":"display","lat":43.64873430659662,"lng":-79.38654117564838}],"distance":559,"postalCode":"M5H 0A4","cc":"CA","city":"Toronto","state":"ON","country":"Canada","formattedAddress":["192 Adelaide St W (at Simcoe St.)","Toronto ON M5H 0A4","Canada"]},"categories":[{"id":"4bf58dd8d48988d1d4941735","name":"Speakeasy","pluralName":"Speakeasies","shortName":"Speakeasy","icon":{"prefix":"https:\/\/ss3.4sqi.net\/img\/categories_v2\/nightlife\/secretbar_","suffix":".png"},"primary":true}],"photos":{"count":0,"groups":[]},"venuePage":{"id":"554347004"}},"referralId":"e-0-50322b6ae4b09116a296568c-17"},{"reasons":{"count":0,"items":[{"summary":"This spot is popular","type":"general","reasonName":"globalInteractionReason"}]},"venue":{"id":"57963897498e6873394a559d","name":"Versus Coffee","location":{"address":"70 Adelaide St E","crossStreet":"at Church St","lat":43.65121343781903,"lng":-79.37523564828548,"labeledLatLngs":[{"label":"display","lat":43.65121343781903,"lng":-79.37523564828548}],"distance":422,"cc":"CA","neighborhood":"St. Lawrence","city":"Toronto","state":"ON","country":"Canada","formattedAddress":["70 Adelaide St E (at Church St)","Toronto ON","Canada"]},"categories":[{"id":"4bf58dd8d48988d1e0931735","name":"Coffee Shop","pluralName":"Coffee Shops","shortName":"Coffee Shop","icon":{"prefix":"https:\/\/ss3.4sqi.net\/img\/categories_v2\/food\/coffeeshop_","suffix":".png"},"primary":true}],"photos":{"count":0,"groups":[]}},"referralId":"e-0-57963897498e6873394a559d-18"},{"reasons":{"count":0,"items":[{"summary":"This spot is popular","type":"general","reasonName":"globalInteractionReason"}]},"venue":{"id":"5227bb01498e17bf485e6202","name":"Downtown Toronto","location":{"lat":43.65323167517444,"lng":-79.38529600606677,"labeledLatLngs":[{"label":"display","lat":43.65323167517444,"lng":-79.38529600606677}],"distance":647,"cc":"CA","city":"Toronto","state":"ON","country":"Canada","formattedAddress":["Toronto ON","Canada"]},"categories":[{"id":"4f2a25ac4b909258e854f55f","name":"Neighborhood","pluralName":"Neighborhoods","shortName":"Neighborhood","icon":{"prefix":"https:\/\/ss3.4sqi.net\/img\/categories_v2\/parks_outdoors\/neighborhood_","suffix":".png"},"primary":true}],"photos":{"count":0,"groups":[]}},"referralId":"e-0-5227bb01498e17bf485e6202-19"},{"reasons":{"count":0,"items":[{"summary":"This spot is popular","type":"general","reasonName":"globalInteractionReason"}]},"venue":{"id":"4ad4c062f964a520fbf720e3","name":"St. Lawrence Market (South Building)","location":{"address":"93 Front St E","crossStreet":"at Lower Jarvis St","lat":43.64874320223593,"lng":-79.37159697627527,"labeledLatLngs":[{"label":"display","lat":43.64874320223593,"lng":-79.37159697627527}],"distance":647,"postalCode":"M5E 1C3","cc":"CA","neighborhood":"St. Lawrence","city":"Toronto","state":"ON","country":"Canada","formattedAddress":["93 Front St E (at Lower Jarvis St)","Toronto ON M5E 1C3","Canada"]},"categories":[{"id":"4bf58dd8d48988d1fa941735","name":"Farmers Market","pluralName":"Farmers Markets","shortName":"Farmer's Market","icon":{"prefix":"https:\/\/ss3.4sqi.net\/img\/categories_v2\/shops\/food_farmersmarket_","suffix":".png"},"primary":true}],"photos":{"count":0,"groups":[]}},"referralId":"e-0-4ad4c062f964a520fbf720e3-20"},{"reasons":{"count":0,"items":[{"summary":"This spot is popular","type":"general","reasonName":"globalInteractionReason"}]},"venue":{"id":"55561f8a498e2e5c866ac4c9","name":"Union Pearson Express","location":{"address":"61 Front St. W","lat":43.64436200658875,"lng":-79.38319927907953,"labeledLatLngs":[{"label":"display","lat":43.64436200658875,"lng":-79.38319927907953}],"distance":603,"postalCode":"M5J 2Z8","cc":"CA","neighborhood":"Entertainment District","city":"Toronto","state":"ON","country":"Canada","formattedAddress":["61 Front St. W","Toronto ON M5J 2Z8","Canada"]},"categories":[{"id":"4bf58dd8d48988d129951735","name":"Train Station","pluralName":"Train Stations","shortName":"Train Station","icon":{"prefix":"https:\/\/ss3.4sqi.net\/img\/categories_v2\/travel\/trainstation_","suffix":".png"},"primary":true}],"photos":{"count":0,"groups":[]}},"referralId":"e-0-55561f8a498e2e5c866ac4c9-21"},{"reasons":{"count":0,"items":[{"summary":"This spot is popular","type":"general","reasonName":"globalInteractionReason"}]},"venue":{"id":"5b6c842bc36588002c80a934","name":"Cafe Landwer","location":{"address":"165 University Ave","crossStreet":"Adelaide St W","lat":43.64875349932059,"lng":-79.3853673607289,"labeledLatLngs":[{"label":"display","lat":43.64875349932059,"lng":-79.3853673607289}],"distance":465,"postalCode":"M5H 3B8","cc":"CA","city":"Toronto","state":"ON","country":"Canada","formattedAddress":["165 University Ave (Adelaide St W)","Toronto ON M5H 3B8","Canada"]},"categories":[{"id":"4bf58dd8d48988d16d941735","name":"Café","pluralName":"Cafés","shortName":"Café","icon":{"prefix":"https:\/\/ss3.4sqi.net\/img\/categories_v2\/food\/cafe_","suffix":".png"},"primary":true}],"photos":{"count":0,"groups":[]}},"referralId":"e-0-5b6c842bc36588002c80a934-22"},{"reasons":{"count":0,"items":[{"summary":"This spot is popular","type":"general","reasonName":"globalInteractionReason"}]},"venue":{"id":"4af618daf964a520220122e3","name":"GEORGE Restaurant","location":{"address":"111c Queen St East","crossStreet":"Church","lat":43.65334645635036,"lng":-79.3744449051126,"labeledLatLngs":[{"label":"display","lat":43.65334645635036,"lng":-79.3744449051126}],"distance":627,"postalCode":"M5C 1S2","cc":"CA","city":"Toronto","state":"ON","country":"Canada","formattedAddress":["111c Queen St East (Church)","Toronto ON M5C 1S2","Canada"]},"categories":[{"id":"4bf58dd8d48988d1c4941735","name":"Restaurant","pluralName":"Restaurants","shortName":"Restaurant","icon":{"prefix":"https:\/\/ss3.4sqi.net\/img\/categories_v2\/food\/default_","suffix":".png"},"primary":true}],"photos":{"count":0,"groups":[]},"venuePage":{"id":"208931627"}},"referralId":"e-0-4af618daf964a520220122e3-23"},{"reasons":{"count":0,"items":[{"summary":"This spot is popular","type":"general","reasonName":"globalInteractionReason"}]},"venue":{"id":"4fff1f96e4b042ae8acddca5","name":"Fahrenheit Coffee","location":{"address":"120 Lombard St","crossStreet":"at Jarvis St","lat":43.65238358726612,"lng":-79.37271903848271,"labeledLatLngs":[{"label":"display","lat":43.65238358726612,"lng":-79.37271903848271}],"distance":663,"postalCode":"M5C 3H5","cc":"CA","city":"Toronto","state":"ON","country":"Canada","formattedAddress":["120 Lombard St (at Jarvis St)","Toronto ON M5C 3H5","Canada"]},"categories":[{"id":"4bf58dd8d48988d1e0931735","name":"Coffee Shop","pluralName":"Coffee Shops","shortName":"Coffee Shop","icon":{"prefix":"https:\/\/ss3.4sqi.net\/img\/categories_v2\/food\/coffeeshop_","suffix":".png"},"primary":true}],"photos":{"count":0,"groups":[]}},"referralId":"e-0-4fff1f96e4b042ae8acddca5-24"},{"reasons":{"count":0,"items":[{"summary":"This spot is popular","type":"general","reasonName":"globalInteractionReason"}]},"venue":{"id":"4bbe53a1848da593e522ea6d","name":"St. Lawrence Market (North Building)","location":{"address":"92 Front St. E","crossStreet":"at Jarvis St.","lat":43.64879290161719,"lng":-79.37194535820687,"labeledLatLngs":[{"label":"display","lat":43.64879290161719,"lng":-79.37194535820687}],"distance":618,"postalCode":"M5E 1C4","cc":"CA","city":"Toronto","state":"ON","country":"Canada","formattedAddress":["92 Front St. E (at Jarvis St.)","Toronto ON M5E 1C4","Canada"]},"categories":[{"id":"4bf58dd8d48988d1fa941735","name":"Farmers Market","pluralName":"Farmers Markets","shortName":"Farmer's Market","icon":{"prefix":"https:\/\/ss3.4sqi.net\/img\/categories_v2\/shops\/food_farmersmarket_","suffix":".png"},"primary":true}],"photos":{"count":0,"groups":[]}},"referralId":"e-0-4bbe53a1848da593e522ea6d-25"},{"reasons":{"count":0,"items":[{"summary":"This spot is popular","type":"general","reasonName":"globalInteractionReason"}]},"venue":{"id":"4adf85e1f964a5206e7b21e3","name":"Hudson's Bay","location":{"address":"176 Yonge St","crossStreet":"Queen St W","lat":43.652039815876805,"lng":-79.38039146122816,"labeledLatLngs":[{"label":"display","lat":43.652039815876805,"lng":-79.38039146122816}],"distance":330,"postalCode":"M5C 2L7","cc":"CA","city":"Toronto","state":"ON","country":"Canada","formattedAddress":["176 Yonge St (Queen St W)","Toronto ON M5C 2L7","Canada"]},"categories":[{"id":"4bf58dd8d48988d1f6941735","name":"Department Store","pluralName":"Department Stores","shortName":"Department Store","icon":{"prefix":"https:\/\/ss3.4sqi.net\/img\/categories_v2\/shops\/departmentstore_","suffix":".png"},"primary":true}],"photos":{"count":0,"groups":[]}},"referralId":"e-0-4adf85e1f964a5206e7b21e3-26"},{"reasons":{"count":0,"items":[{"summary":"This spot is popular","type":"general","reasonName":"globalInteractionReason"}]},"venue":{"id":"4b72f550f964a5202e922de3","name":"Mystic Muffin","location":{"address":"113 Jarvis St","crossStreet":"at Richmond St E","lat":43.652483550499326,"lng":-79.37265472845176,"labeledLatLngs":[{"label":"display","lat":43.652483550499326,"lng":-79.37265472845176}],"distance":673,"cc":"CA","city":"Toronto","state":"ON","country":"Canada","formattedAddress":["113 Jarvis St (at Richmond St E)","Toronto ON","Canada"]},"categories":[{"id":"4bf58dd8d48988d115941735","name":"Middle Eastern Restaurant","pluralName":"Middle Eastern Restaurants","shortName":"Middle Eastern","icon":{"prefix":"https:\/\/ss3.4sqi.net\/img\/categories_v2\/food\/middleeastern_","suffix":".png"},"primary":true}],"photos":{"count":0,"groups":[]}},"referralId":"e-0-4b72f550f964a5202e922de3-27"},{"reasons":{"count":0,"items":[{"summary":"This spot is popular","type":"general","reasonName":"globalInteractionReason"}]},"venue":{"id":"4b155081f964a520b4b023e3","name":"Scotiabank Arena","location":{"address":"40 Bay St","lat":43.64344617535107,"lng":-79.37903988889991,"labeledLatLngs":[{"label":"display","lat":43.64344617535107,"lng":-79.37903988889991}],"distance":633,"postalCode":"M5J 2X2","cc":"CA","city":"Toronto","state":"ON","country":"Canada","formattedAddress":["40 Bay St","Toronto ON M5J 2X2","Canada"]},"categories":[{"id":"4bf58dd8d48988d18b941735","name":"Basketball Stadium","pluralName":"Basketball Stadiums","shortName":"Basketball","icon":{"prefix":"https:\/\/ss3.4sqi.net\/img\/categories_v2\/arts_entertainment\/stadium_basketball_","suffix":".png"},"primary":true}],"photos":{"count":0,"groups":[]},"venuePage":{"id":"33431410"}},"referralId":"e-0-4b155081f964a520b4b023e3-28"},{"reasons":{"count":0,"items":[{"summary":"This spot is popular","type":"general","reasonName":"globalInteractionReason"}]},"venue":{"id":"529612de11d2ab526191ccc9","name":"Pai","location":{"address":"18 Duncan St","crossStreet":"Adelaide and Duncan","lat":43.64792310735613,"lng":-79.38857932631602,"labeledLatLngs":[{"label":"display","lat":43.64792310735613,"lng":-79.38857932631602}],"distance":734,"postalCode":"M5H 3G6","cc":"CA","neighborhood":"Entertainment District","city":"Toronto","state":"ON","country":"Canada","formattedAddress":["18 Duncan St (Adelaide and Duncan)","Toronto ON M5H 3G6","Canada"]},"categories":[{"id":"4bf58dd8d48988d149941735","name":"Thai Restaurant","pluralName":"Thai Restaurants","shortName":"Thai","icon":{"prefix":"https:\/\/ss3.4sqi.net\/img\/categories_v2\/food\/thai_","suffix":".png"},"primary":true}],"photos":{"count":0,"groups":[]}},"referralId":"e-0-529612de11d2ab526191ccc9-29"}]}]}}